{
   "type": "FeatureCollection",
   "features": [
  {
    "type": "Feature",
    "geometry": {
       "type": "Point",
       "coordinates":  [ 35.590210,33.110116 ]
    },
    "properties": {
      "hide_nav": true,
      "title":"ברוכים הבאים לאגמון החולה",
      "nav_lon":"",
      "nav_lat":"",
      "image":"./data/img/01.jpg",
      "youtube":"https://tourguidingmedia.s3.eu-west-3.amazonaws.com/hula/welcome_to_agamon_hula_lake-late_autumn.mp4"
    }
  },
  {
    "type": "Feature",
    "geometry": {
      "type": "Point",
      "coordinates": [
        35.594339,
        33.107863
      ]
    },
    "properties": {
      "hide_nav": true,
      "title": "צמחי מים באגמון החולה",
      "nav_lon": "",
      "nav_lat": "",
      "image": "./data/img/02.jpg",
      "youtube": "https://tourguidingmedia.s3.eu-west-3.amazonaws.com/hula/aquatic_plants_at_agamon_hula.mp4"
    }
  },
  {
    "type": "Feature",
    "geometry": {
      "type": "Point",
      "coordinates": [
        35.595406,
        33.101891
      ]
    },
    "properties": {
      "hide_nav": true,
      "title": "עופות דורסים באגמון החולה",
      "nav_lon": "",
      "nav_lat": "",
      "image": "./data/img/03.jpg",
      "youtube": "https://tourguidingmedia.s3.eu-west-3.amazonaws.com/hula/raptors_at_agamon_hula.mp4"
    }
  },
  {
    "type": "Feature",
    "geometry": {
       "type": "Point",
       "coordinates":  [ 35.595984,33.097227 ]
    },
    "properties": {
      "hide_nav": true,
      "title":"חקלאות בעמק החולה",
      "nav_lon":"",
      "nav_lat":"",
      "image":"./data/img/04.jpg",
      "youtube":"https://tourguidingmedia.s3.eu-west-3.amazonaws.com/hula/agriculture_at_hula_valley.mp4"
    }
  },
  {
    "type": "Feature",
    "geometry": {
       "type": "Point",
       "coordinates":  [ 35.60082,33.097031 ]
    },
    "properties": {
      "hide_nav": true,
      "title":"יונקים באגמון החולה",
      "nav_lon":"",
      "nav_lat":"",
      "image":"./data/img/05.jpg",
      "youtube":"https://tourguidingmedia.s3.eu-west-3.amazonaws.com/hula/mammals_at_agamon_hula.mp4"
    }
  },
  {
    "type": "Feature",
    "geometry": {
       "type": "Point",
       "coordinates":  [ 35.611518,33.097258 ]
    },
    "properties": {
      "hide_nav": true,
      "title":"מחפשים אוצרות בבוץ",
      "nav_lon":"",
      "nav_lat":"",
      "image":"./data/img/06.jpg",
      "youtube":"https://tourguidingmedia.s3.eu-west-3.amazonaws.com/hula/treasures_in_the_mud.mp4"
    }
  },
  {
    "type": "Feature",
    "geometry": {
       "type": "Point",
       "coordinates":  [ 35.621471,33.102369 ]
    },
    "properties": {
      "hide_nav": true,
      "title":"מינים פולשים באגמון החולה",
      "nav_lon":"",
      "nav_lat":"",
      "image":"./data/img/07.jpg",
      "youtube":"https://tourguidingmedia.s3.eu-west-3.amazonaws.com/hula/invasive_species_in_agamon_hula.mp4"
    }
  },
  {
    "type": "Feature",
    "geometry": {
      "type": "Point",
      "coordinates": [
        35.610808,
        33.108267
      ]
    },
    "properties": {
      "hide_nav": true,
      "title": "דגים דגים",
      "nav_lon": "",
      "nav_lat": "",
      "image": "./data/img/09.jpg",
      "youtube": "https://tourguidingmedia.s3.eu-west-3.amazonaws.com/hula/fishing_fish.mp4"
    }
  },
  {
    "type": "Feature",
    "geometry": {
       "type": "Point",
       "coordinates":  [ 35.604312,33.109385 ]
    },
    "properties": {
      "hide_nav": true,
      "title":"התאמה לחיים במים",
      "nav_lon":"",
      "nav_lat":"",
      "image":"./data/img/08.jpg",
      "youtube":"https://tourguidingmedia.s3.eu-west-3.amazonaws.com/hula/adaptations_for_aquatic_life.mp4"
    }
  }
]
}